[
    {
        "HotelID": "105306",
        "Name": "Arizona Biltmore, A Waldorf Astoria Resort",
        "Address1": "2400 E Missouri Avenue",
        "City": "Phoenix",
        "StateProvince": "AZ",
        "PostalCode": "85016",
        "Country": "US",
        "Latitude": "33.52331",
        "Longitude": "-112.02456",
        "frontImage": "https://cdn.hotelplanner.com/Common/Images/_HotelPlanner/Home-Page/fade/sld6.jpg",
        "reviewsCnt": "1",
        "color": "red"
    },
    {
        "HotelID": "105655",
        "Name": "The Fairmont Miramar Hotel & Bungalows",
        "Address1": "101 Wilshire Blvd",
        "City": "Santa Monica",
        "StateProvince": "CA",
        "PostalCode": "90401",
        "Country": "US",
        "Latitude": "34.01716",
        "Longitude": "-118.50075",
        "frontImage": "https://encrypted-tbn0.gstatic.com/images?q=tbn:ANd9GcQKj3PQo_ZVPKFzXgWg_v3mmmStFUhRnL1qBEFlofRvUOMsn85p&s",
        "reviewsCnt": "1",
        "color":"green"
    },
    {
        "HotelID": "105687",
        "Name": "Sheraton Gateway Hotel Los Angeles Airport",
        "Address1": "6101 W Century Blvd",
        "City": "Los Angeles",
        "StateProvince": "CA",
        "PostalCode": "90045",
        "Country": "US",
        "Latitude": "33.94556",
        "Longitude": "-118.39019",
        "frontImage": "https://q-cf.bstatic.com/images/hotel/max1024x768/302/30202886.jpg",
        "reviewsCnt": "1"
    },
    {
        "HotelID": "106204",
        "Name": "InterContinental Lusaka",
        "Address1": "Haile Selassie Avenue",
        "City": "Lusaka",
        "StateProvince": "",
        "PostalCode": "10101",
        "Country": "ZM",
        "Latitude": "-15.41904",
        "Longitude": "28.30881",
        "frontImage": "",
        "reviewsCnt": "1"
    },
    {
        "HotelID": "106290",
        "Name": "Irvine Marriott",
        "Address1": "18000 Von Karman Ave",
        "City": "Irvine",
        "StateProvince": "CA",
        "PostalCode": "92612",
        "Country": "US",
        "Latitude": "33.67784",
        "Longitude": "-117.85241",
        "frontImage": "https://media-api.xogrp.com/images/9a506749-95e9-47cf-857e-5374f2205b93~rs_768.h",
        "reviewsCnt": "1"
    },
    {
        "HotelID": "106409",
        "Name": "Amsterdam Marriott Hotel",
        "Address1": "Stadhouderskade 12",
        "City": "Amsterdam",
        "StateProvince": "",
        "PostalCode": "1054 ES",
        "Country": "NL",
        "Latitude": "52.36264",
        "Longitude": "4.88033",
        "frontImage": "https://encrypted-tbn0.gstatic.com/images?q=tbn:ANd9GcRIeT8ATu6rKsKO554-TolahQ6bFcqQn4qClRCT2sAxjY8Xghvq&s",
        "reviewsCnt": "1"
    },
    {
        "HotelID": "106414",
        "Name": "Chicago Marriott Downtown Magnificent Mile",
        "Address1": "540 North Michigan Avenue",
        "City": "Chicago",
        "StateProvince": "IL",
        "PostalCode": "60611",
        "Country": "US",
        "Latitude": "41.89212",
        "Longitude": "-87.62428",
        "frontImage": "https://stayatthei.com/sites/default/files/styles/s51_slider_style/public/IHotelandConferenceCenter_glamour-sky.jpg?itok=GzxwuokI",
        "reviewsCnt": "1"
    },
    {
        "HotelID": "106427",
        "Name": "Marriott San Antonio Riverwalk",
        "Address1": "889 East Market Street",
        "City": "San Antonio",
        "StateProvince": "TX",
        "PostalCode": "78205",
        "Country": "US",
        "Latitude": "29.42223",
        "Longitude": "-98.48450",
        "frontImage": "https://www.samaa.tv/wp-content/uploads/2016/12/besthotelsites-1.jpg",
        "reviewsCnt": "1"
    },
    {
        "HotelID": "106437",
        "Name": "Seattle Airport Marriott",
        "Address1": "3201 S 176th St",
        "City": "SeaTac",
        "StateProvince": "WA",
        "PostalCode": "98188",
        "Country": "US",
        "Latitude": "47.44534",
        "Longitude": "-122.29181",
        "frontImage": "http://hotelinnvestor.com/content/uploads/2015/03/hotels-4.jpg",
        "reviewsCnt": "1"
    },
    {
        "HotelID": "107246",
        "Name": "EVEN Hotel Rockville - Washington DC Area",
        "Address1": "1775 Rockville Pike",
        "City": "Rockville",
        "StateProvince": "MD",
        "PostalCode": "20852",
        "Country": "US",
        "Latitude": "39.06023",
        "Longitude": "-77.12275",
        "frontImage": "https://images.unsplash.com/photo-1520250497591-112f2f40a3f4?ixlib=rb-1.2.1&ixid=eyJhcHBfaWQiOjEyMDd9&w=1000&q=80",
        "reviewsCnt": "1"
    },
    {
        "HotelID": "108444",
        "Name": "Crowne Plaza Seattle Airport",
        "Address1": "17338 International Blvd",
        "City": "SeaTac",
        "StateProvince": "WA",
        "PostalCode": "98188",
        "Country": "US",
        "Latitude": "47.44751",
        "Longitude": "-122.29631",
        "frontImage": "https://i.pinimg.com/originals/58/41/22/58412255f24339729febd97c8c87a1c3.jpg",
        "reviewsCnt": "1"
    },
    {
        "HotelID": "109295",
        "Name": "Beverly Wilshire - Beverly Hills, A Four Seasons Hotel",
        "Address1": "9500 Wilshire Blvd",
        "City": "Beverly Hills",
        "StateProvince": "CA",
        "PostalCode": "90212",
        "Country": "US",
        "Latitude": "34.06643",
        "Longitude": "-118.40019",
        "frontImage": "https://q-cf.bstatic.com/images/hotel/max1024x768/170/170132281.jpg",
        "reviewsCnt": "1"
    },
    {
        "HotelID": "109368",
        "Name": "Boston Omni Parker House Hotel",
        "Address1": "60 School St",
        "City": "Boston",
        "StateProvince": "MA",
        "PostalCode": "02108",
        "Country": "US",
        "Latitude": "42.35788",
        "Longitude": "-71.06007",
        "frontImage": "https://media-cdn.tripadvisor.com/media/photo-s/0e/b9/8a/3e/gomang-boutique-hotel.jpg",
        "reviewsCnt": "1"
    },
    {
        "HotelID": "111486",
        "Name": "The Grand Hotel Minneapolis, a Kimpton Hotel",
        "Address1": "615 Second Avenue S.",
        "City": "Minneapolis",
        "StateProvince": "MN",
        "PostalCode": "55402",
        "Country": "US",
        "Latitude": "44.97666",
        "Longitude": "-93.26880",
        "frontImage": "https://www3.hilton.com/resources/media/hi/DADDVHI/en_US/img/shared/full_page_image_gallery/main/HL_thesail1_675x359_FitToBoxSmallDimension_Center.jpg",
        "reviewsCnt": "1"
    },
    {
        "HotelID": "111558",
        "Name": "Renaissance Austin Hotel",
        "Address1": "9721 Arboretum Blvd",
        "City": "Austin",
        "StateProvince": "TX",
        "PostalCode": "78759",
        "Country": "US",
        "Latitude": "30.39250",
        "Longitude": "-97.74985",
        "frontImage": "https://bsmedia.business-standard.com/_media/bs/img/article/2019-04/09/full/1554825498-2493.jpg",
        "reviewsCnt": "1"
    },
    {
        "HotelID": "111596",
        "Name": "Grand Hotel Acapulco",
        "Address1": "Costera Miguel Aleman 1",
        "City": "Acapulco",
        "StateProvince": "",
        "PostalCode": "39869",
        "Country": "MX",
        "Latitude": "16.84286",
        "Longitude": "-99.84959",
        "frontImage": "https://www3.hilton.com/resources/media/hi/LONHITW/en_US/img/shared/full_page_image_gallery/main/HL_exteriornight01_1270x560_FitToBoxSmallDimension_LowerCenter.jpg",
        "reviewsCnt": "1"
    },
    {
        "HotelID": "112534",
        "Name": "Hilton Chicago- Michigan Ave Cultural Mile",
        "Address1": "720 S Michigan Ave",
        "City": "Chicago",
        "StateProvince": "IL",
        "PostalCode": "60605",
        "Country": "US",
        "Latitude": "41.87253",
        "Longitude": "-87.62427",
        "frontImage": "https://encrypted-tbn0.gstatic.com/images?q=tbn:ANd9GcT0NgkCe34KufwMpaNmIuS70xvwvKdZHOBE4kN2t1zVB0Of8Q2N&s",
        "reviewsCnt": "6"
    },
    {
        "HotelID": "112671",
        "Name": "Ontario Airport Hotel and Conference Center",
        "Address1": "700 N Haven Ave",
        "City": "Ontario",
        "StateProvince": "CA",
        "PostalCode": "91764",
        "Country": "US",
        "Latitude": "34.06967",
        "Longitude": "-117.57566",
        "frontImage": "https://encrypted-tbn0.gstatic.com/images?q=tbn:ANd9GcRFhlnmLM6RgRTgFcvkxEMjzRvaYBsOnvyMlCG-i2Ox_Cz0oppXZQ&s",
        "reviewsCnt": "1"
    },
    {
        "HotelID": "112901",
        "Name": "The Beverly Hilton",
        "Address1": "9876 Wilshire Blvd",
        "City": "Beverly Hills",
        "StateProvince": "CA",
        "PostalCode": "90210",
        "Country": "US",
        "Latitude": "34.06582",
        "Longitude": "-118.41393",
        "frontImage": "https://2486634c787a971a3554-d983ce57e4c84901daded0f67d5a004f.ssl.cf1.rackcdn.com/_wyndham-dolce/media/dolce-alexander-home-reasons-to-stay-center-indianapolis-culture-5c81368d042fc.jpg",
        "reviewsCnt": "1"
    },
    {
        "HotelID": "112929",
        "Name": "Hilton Portland & Executive Tower",
        "Address1": "921 SW 6th Ave",
        "City": "Portland",
        "StateProvince": "OR",
        "PostalCode": "97204",
        "Country": "US",
        "Latitude": "45.51740",
        "Longitude": "-122.67952",
        "frontImage": "https://www.nticonsultants.com/wp-content/uploads/2013/05/TheAlexandarRendering.jpg",
        "reviewsCnt": "1"
    },
    {
        "HotelID": "308725",
        "Name": "Viceroy Miami",
        "Address1": "485 Brickell Avenue",
        "City": "Miami",
        "StateProvince": "FL",
        "PostalCode": "33131",
        "Country": "US",
        "Latitude": "25.76844",
        "Longitude": "-80.19003",
        "frontImage": "",
        "reviewsCnt": "3"
    },
    {
        "HotelID": "310190",
        "Name": "Terranea - L.A.'s Oceanfront Resort",
        "Address1": "100 Terranea Way",
        "City": "Rancho Palos Verdes",
        "StateProvince": "CA",
        "PostalCode": "90275",
        "Country": "US",
        "Latitude": "33.73886",
        "Longitude": "-118.39771",
        "frontImage": "",
        "reviewsCnt": "1"
    },
    {
        "HotelID": "311868",
        "Name": "Courtyard by Marriott Toulouse Airport",
        "Address1": "4Bis, Rue Alain Fournier",
        "City": "Toulouse",
        "StateProvince": "",
        "PostalCode": "31300",
        "Country": "FR",
        "Latitude": "43.60731",
        "Longitude": "1.37147",
        "frontImage": "",
        "reviewsCnt": "1"
    },
    {
        "HotelID": "323688",
        "Name": "Sofitel Dubai Jumeirah Beach",
        "Address1": "Jumeirah Beach - Dubai Marina",
        "City": "Dubai",
        "StateProvince": "",
        "PostalCode": "0",
        "Country": "AE",
        "Latitude": "25.07503",
        "Longitude": "55.13258",
        "frontImage": "",
        "reviewsCnt": "1"
    },
    {
        "HotelID": "328315",
        "Name": "JW Marriott Los Angeles L.A. LIVE",
        "Address1": "900 W Olympic Blvd",
        "City": "Los Angeles",
        "StateProvince": "CA",
        "PostalCode": "90015",
        "Country": "US",
        "Latitude": "34.04568",
        "Longitude": "-118.26647",
        "frontImage": "",
        "reviewsCnt": "3"
    },
    {
        "HotelID": "333462",
        "Name": "Moevenpick Hotel Deira",
        "Address1": "Abu Baker Al Siddque & Sallahuddin Road",
        "City": "Dubai",
        "StateProvince": "",
        "PostalCode": "234344",
        "Country": "AE",
        "Latitude": "25.27074",
        "Longitude": "55.33000",
        "frontImage": "",
        "reviewsCnt": "1"
    },
    {
        "HotelID": "339551",
        "Name": "Courtyard by Marriott New York Manhattan\/Times Square",
        "Address1": "114 W 40th St",
        "City": "New York",
        "StateProvince": "NY",
        "PostalCode": "10018",
        "Country": "US",
        "Latitude": "40.75391",
        "Longitude": "-73.98598",
        "frontImage": "",
        "reviewsCnt": "1"
    },
    {
        "HotelID": "375390",
        "Name": "Sofitel Abu Dhabi Corniche",
        "Address1": "Corniche Road East",
        "City": "Abu Dhabi",
        "StateProvince": "",
        "PostalCode": "4966",
        "Country": "AE",
        "Latitude": "24.49972",
        "Longitude": "54.36716",
        "frontImage": "",
        "reviewsCnt": "1"
    },
    {
        "HotelID": "380041",
        "Name": "Renaissance Baton Rouge Hotel",
        "Address1": "7000 Bluebonnet Blvd",
        "City": "Baton Rouge",
        "StateProvince": "LA",
        "PostalCode": "70810",
        "Country": "US",
        "Latitude": "30.38727",
        "Longitude": "-91.09388",
        "frontImage": "",
        "reviewsCnt": "2"
    },
    {
        "HotelID": "387367",
        "Name": "Radisson Blu Aqua Hotel Chicago",
        "Address1": "221 N Columbus Dr",
        "City": "Chicago",
        "StateProvince": "IL",
        "PostalCode": "60601",
        "Country": "US",
        "Latitude": "41.88652",
        "Longitude": "-87.62055",
        "frontImage": "",
        "reviewsCnt": "2"
    },
    {
        "HotelID": "416072",
        "Name": "Centro Capital Centre",
        "Address1": "Al Khaleej Al Arabi Street",
        "City": "Abu Dhabi",
        "StateProvince": "",
        "PostalCode": "",
        "Country": "AE",
        "Latitude": "24.41915",
        "Longitude": "54.43984",
        "frontImage": "",
        "reviewsCnt": "1"
    },
    {
        "HotelID": "422392",
        "Name": "Fairmont The Palm",
        "Address1": "Palm Jumeirah",
        "City": "Dubai",
        "StateProvince": "",
        "PostalCode": "",
        "Country": "AE",
        "Latitude": "25.11045",
        "Longitude": "55.14126",
        "frontImage": "",
        "reviewsCnt": "1"
    },
    {
        "HotelID": "424450",
        "Name": "Aloft Cupertino",
        "Address1": "10165 N De Anza Blvd",
        "City": "Cupertino",
        "StateProvince": "CA",
        "PostalCode": "95014",
        "Country": "US",
        "Latitude": "37.32540",
        "Longitude": "-122.03246",
        "frontImage": "",
        "reviewsCnt": "1"
    },
    {
        "HotelID": "426147",
        "Name": "L'Auberge Casino Hotel Baton Rouge",
        "Address1": "777 L'Auberge Avenue",
        "City": "Baton Rouge",
        "StateProvince": "LA",
        "PostalCode": "70820",
        "Country": "US",
        "Latitude": "30.34678",
        "Longitude": "-91.15324",
        "frontImage": "",
        "reviewsCnt": "1"
    },
    {
        "HotelID": "427439",
        "Name": "JW Marriott Hotel Hanoi",
        "Address1": "No 8 Do Duc Duc Road",
        "City": "Hanoi",
        "StateProvince": "",
        "PostalCode": "",
        "Country": "VN",
        "Latitude": "21.00867",
        "Longitude": "105.78259",
        "frontImage": "",
        "reviewsCnt": "1"
    },
    {
        "HotelID": "427833",
        "Name": "Cheval Phoenix House",
        "Address1": "1 Wilbraham Place",
        "City": "London",
        "StateProvince": "",
        "PostalCode": "SW1X 9AE",
        "Country": "GB",
        "Latitude": "51.49393",
        "Longitude": "-0.15769",
        "frontImage": "",
        "reviewsCnt": "1"
    },
    {
        "HotelID": "444292",
        "Name": "Hampton by Hilton Volgograd Profsoyuznaya",
        "Address1": "13 Profsoysnaya Street",
        "City": "Volgograd",
        "StateProvince": "",
        "PostalCode": "400001",
        "Country": "RU",
        "Latitude": "48.69941",
        "Longitude": "44.49565",
        "frontImage": "",
        "reviewsCnt": "1"
    },
    {
        "HotelID": "446622",
        "Name": "Hilton Garden Inn Oklahoma City Bricktown",
        "Address1": "328 East Sheridan Avenue",
        "City": "Oklahoma City",
        "StateProvince": "OK",
        "PostalCode": "73104",
        "Country": "US",
        "Latitude": "35.46644",
        "Longitude": "-97.50622",
        "frontImage": "",
        "reviewsCnt": "1"
    },
    {
        "HotelID": "459409",
        "Name": "Fairfield Inn & Suites Riverside Corona\/Norco",
        "Address1": "3441 Hamner Avenue",
        "City": "Norco",
        "StateProvince": "CA",
        "PostalCode": "92860",
        "Country": "US",
        "Latitude": "33.93319",
        "Longitude": "-117.55755",
        "frontImage": "",
        "reviewsCnt": "1"
    },
    {
        "HotelID": "463096",
        "Name": "Courtyard Irvine Spectrum",
        "Address1": "7955 Irvine Center Dr",
        "City": "Irvine",
        "StateProvince": "CA",
        "PostalCode": "92618",
        "Country": "US",
        "Latitude": "33.65735",
        "Longitude": "-117.74924",
        "frontImage": "",
        "reviewsCnt": "1"
    },
    {
        "HotelID": "469911",
        "Name": "Sunrise Inn Hotel",
        "Address1": "Kountourata, Pessada",
        "City": "Kefalonia",
        "StateProvince": "",
        "PostalCode": "28100",
        "Country": "GR",
        "Latitude": "38.11196",
        "Longitude": "20.57280",
        "frontImage": "",
        "reviewsCnt": "1"
    },
    {
        "HotelID": "480783",
        "Name": "Dubai Luxury Stay - Downtown Dubai",
        "Address1": "Downtown Dubai",
        "City": "Dubai",
        "StateProvince": "",
        "PostalCode": "",
        "Country": "AE",
        "Latitude": "25.07648",
        "Longitude": "55.14440",
        "frontImage": "",
        "reviewsCnt": "1"
    }
]